station,longitude,latitude,count
金安桥,116.169048,39.929569,50
四道桥,116.140356,39.922119,18
桥户营,116.132271,39.918355,61
上岸,116.128714,39.911139,67
栗园庄,116.129827,39.901771,77
小园,116.121001,39.896156,80
石厂,116.400228,39.957365,1050
苹果园,116.184436,39.932436,73
古城,116.197076,39.913414,173
八角游乐园,116.219395,39.913076,160
八宝山,116.248358,39.918286,164
玉泉路,116.259475,39.913501,358
五棵松,116.280661,39.913834,471
万寿路,116.301618,39.923346,271
公主坟,116.316746,39.913701,177
军事博物馆,116.330207,39.914976,245
木樨地,116.3441,39.913125,430
南礼士路,116.359177,39.912979,524
复兴门,116.36376,39.913025,508
西单,116.381905,39.913327,368
天安门西,116.398036,39.913776,750
天安门东,116.407913,39.914082,1022
王府井,116.418038,39.91979,1162
东单,116.425374,39.914503,1643
建国门,116.44195,39.914505,1382
永安里,116.457086,39.914223,1885
国贸,116.467328,39.914437,1875
大望路,116.483555,39.914614,1561
四惠,116.502033,39.914861,1201
四惠东,116.521965,39.914941,715
积水潭,116.379185,39.954765,827
鼓楼大街,116.400238,39.954611,1143
安定门,116.414597,39.955441,947
雍和宫,116.423633,39.953628,1003
东直门,116.441365,39.947769,1560
东四十条,116.440638,39.939841,1837
朝阳门,116.44019,39.93046,2286
北京站,116.433547,39.909462,1962
崇文门,116.424427,39.9072,2082
前门,116.404276,39.906534,1675
和平门,116.390619,39.906362,568
宣武门,116.380848,39.905881,386
长椿街,116.36991100000002,39.90534,403
阜成门,116.362817,39.929522,624
车公庄,116.361887,39.938351,901
西直门,116.361446,39.946471,720
天宫院,116.326437,39.676122,134
生物医药基地,116.328218,39.692272,123
义和庄,116.325538,39.718296,387
黄村火车站,116.338216,39.725999,182
黄村西大街,116.339128,39.73738,61
清源路,116.339019,39.748354,108
枣园,116.338975,39.759079,136
高米店南,116.33841,39.76905900000001,168
高米店北,116.337331,39.779548,135
西红门,116.335169,39.795445,59
新宫,116.372097,39.818302,103
公益西桥,116.38058999999998,39.837705,403
角门西,116.377646,39.851929,725
马家堡,116.377878,39.859199,574
北京南站,116.385488,39.87128,382
陶然亭,116.388442,39.88066,592
菜市口,116.380956,39.895379,589
灵境胡同,116.380223,39.922136,440
西四,116.37977,39.930248,879
平安里,116.378599,39.939262,1103
新街口,116.374132,39.94658,992
动物园,116.343376,39.947735,395
国家图书馆,116.330065,39.949641,486
魏公村,116.329874,39.963457,663
人民大学,116.319769,39.976546,726
海淀黄庄,116.324346,39.981865,996
中关村,116.323066,39.989956,967
北京大学东门,116.322265,39.998006,680
圆明园,116.309804,40.012658,73
西苑,116.297853,40.0049,62
北宫门,116.28399,40.008678,40
安河桥北,116.276432,40.018657,67
宋家庄,116.434908,39.851735,608
刘家窑,116.428565,39.863697,679
蒲黄榆,116.428882,39.871689,615
天坛东门,116.427392,39.888497,1603
磁器口,116.425886,39.899336,1908
灯市口,116.424182,39.923388,1404
东四,116.423282,39.93053,1813
张自忠路,116.423579,39.939914,1659
北新桥,116.423298,39.947112,1285
和平里北街,116.425051,39.964752,601
和平西桥,116.424463,39.974502,621
惠新西街南口,116.424044,39.983276,551
惠新西街北口,116.423532,39.994151,547
大屯路东,116.424567,40.009611,232
北苑路北,116.424525,40.036821,290
立水桥南,116.420973,40.048143,366
立水桥,116.418267,40.059246,345
天通苑南,116.419113,40.072752,181
天通苑,116.419233,40.081478,119
天通苑北,116.419385,40.089597,88
潞城,116.754522,39.908938,0
东夏园,116.740106,39.909495,0
郝家府,116.724216,39.909287,0
北运河东,116.713759,39.909261,6
北运河西,116.694826,39.908841,39
通州北关,116.668081,39.924614,715
物资学院路,116.645884,39.933079,333
草房,116.622524,39.930668,316
常营,116.606123,39.93154000000001,418
黄渠,116.584911,39.929936,278
褡裢坡,116.570246,39.929826,236
青年路,116.523308,39.929458,711
十里堡,116.508486,39.929239,859
金台路,116.484909,39.929069,1060
呼家楼,116.468113,39.92898,1731
东大桥,116.458435,39.928663,2257
南锣鼓巷,116.408878,39.943562,1500
北海北,116.393248,39.939519,1393
车公庄西,116.350736,39.938074,600
白石桥南,116.331686,39.938564,437
花园桥,116.31757,39.938382,414
慈寿寺,116.300785,39.93930200000001,256
海淀五路居,116.282952,39.938607,146
田村,116.252191,39.9372,50
廖公庄,116.23356499999998,39.938022,62
西黄村,116.213379,39.939411,100
杨庄,116.195336,39.930221,124
焦化厂,116.543631,39.861686,57
双合,116.533066,39.866062,35
垡头,116.518225,39.867185,82
欢乐谷景区,116.505928,39.872908,101
南楼梓庄,116.50781299999998,39.88079000000001,331
化工,116.492468,39.897571,1541
百子湾,116.504162,39.898706,1035
大郊亭,116.494705,39.899072,1389
九龙山,116.484688,39.899325,2027
广渠门外,116.455905,39.899309,2035
广渠门内,116.440734,39.899617,1693
桥湾,116.415256,39.899013,1865
珠市口,116.404809,39.897338,1745
虎坊桥,116.390649,39.895692,884
广安门内,116.364636,39.89543,395
达官营,116.342267,39.89567,603
湾子,116.334406,39.895901,553
北京西站,116.328103,39.900835,437
中国美术馆,116.415449,39.931473,1673
什刹海,116.402555,39.943977,1520
安德里北街,116.401546,39.963579,670
安华桥,116.402595,39.975004,614
北土城,116.400652,39.983496,673
奥体中心,116.40613799999998,39.990549,552
奥林匹克公园,116.399206,39.999245,376
森林公园南门,116.399036,40.016211,132
林萃桥,116.379084,40.027996,42
永泰庄,116.361199,40.043612,104
西小口,116.358248,40.05262800000001,107
育新,116.354009,40.066042,126
霍营,116.366667,40.077091,120
回龙观东大街,116.369733,40.086835,99
平西府,116.357007,40.095764,82
育知路,116.333754,40.093698,82
朱辛庄,116.32013,40.110334,18
天桥,116.404481,39.88871,1421
永定门外,116.405989,39.872783,615
木樨园,116.410194,39.860426,757
海户屯,116.40671299999998,39.858265,757
大红门南,116.407454,39.842626,525
和义,116.408491,39.821387,44
东高地,116.415686,39.811433,43
火箭万源,116.425132,39.805405,37
五福堂,116.430158,39.791422,22
德茂,116.448258,39.778312,13
瀛海,116.45565,39.766581,8
郭公庄,116.308487,39.820674,234
丰台科技园,116.303639,39.831449,314
科怡路,116.303808,39.838664,248
丰台南路,116.302854,39.847201,247
丰台东大街,116.300215,39.86144,205
七里庄,116.300553,39.87301400000001,242
六里桥,116.317852,39.891116,525
六里桥东,116.321854,39.893237,525
白堆子,116.332359,39.929707,325
巴沟,116.298179,39.98067800000001,407
苏州街,116.312768,39.981704,614
知春里,116.336091,39.982061,1003
知春路,116.347619,39.98206500000001,946
西土城,116.36087,39.982036,575
牡丹园,116.376341,39.982387,413
健德门,116.387816,39.982833,503
安贞门,116.412371,39.983322,681
芍药居,116.443517,39.9835,385
太阳宫,116.454136,39.97831400000001,485
三元桥,116.462866,39.964996,615
亮马桥,116.468743,39.955006,537
农业展览馆,116.471642,39.946271,854
团结湖,116.468337,39.939382,1371
金台夕照,116.468302,39.92263,1850
双井,116.469147,39.899171,2202
劲松,116.46801,39.890027,2002
潘家园,116.467742,39.881537,1679
十里河,116.465014,39.87151400000001,1063
分钟寺,116.460381,39.857891,590
成寿寺,116.454315,39.851457,236
石榴庄,116.42057,39.85210900000001,697
大红门,116.40578700000002,39.851831,617
角门东,116.392539,39.851482,505
草桥,116.35666299999998,39.85211500000001,403
纪家庙,116.339533,39.850124,329
首经贸,116.32338,39.847691,298
丰台站,116.311475,39.856026,245
泥洼,116.31081299999998,39.8647,232
西局,116.310325,39.872261,315
莲花桥,116.319367,39.902613,315
西钓鱼台,116.304189,39.929644,260
车道沟,116.300321,39.954052,456
长春桥,116.300471,39.964858,488
火器营,116.29561,39.972383,408
大钟寺,116.35182,39.972034,466
五道口,116.344434,39.998568,896
上地,116.326836,40.038699,157
西二旗,116.312555,40.059036,204
龙泽,116.326298,40.076646,158
回龙观,116.342667,40.076423,188
北苑,116.441227,40.048911,139
望京西,116.45556,40.001127,623
光熙门,116.438355,39.974474,542
柳芳,116.439265,39.964106,650
善各庄,116.48476200000002,40.03309,45
来广营,116.47348999999998,40.025913,99
东湖渠,116.474041,40.016019,276
望京,116.475304,40.004532,941
阜通,116.477949,39.997678,1088
望京南,116.488469,39.990525,1019
将台,116.496253,39.97696,447
东风北桥,116.495267,39.961954,255
枣营,116.481589,39.949941,389
朝阳公园,116.489233,39.949861,273
平乐园,116.483967,39.890758,1840
北工大西门,116.484004,39.881028,964
方庄,116.433956,39.867562,735
景泰,116.417168,39.871443,440
大井,116.281826,39.871571,118
郭庄子,116.259835,39.870755,55
大瓦窑,116.246953,39.865215,22
园博园,116.197194,39.881733,3
张郭庄,116.193406,39.864102,1
俸伯,116.69145,40.138304,1
顺义,116.661427,40.136352,15
石门,116.647776,40.136322,21
南法信,116.616411,40.134458,267
后沙峪,116.570793,40.119865,65
花梨坎,116.564223,40.090312,138
国展,116.449744,39.967896,718
孙河,116.54104,40.051264,17
马泉营,116.509638,40.039847,33
崔各庄,116.499145,40.028437,45
望京东,116.4933,40.00927,265
关庄,116.43788899999998,40.007136,150
安立路,116.414285,40.008946,316
北沙滩,116.375561,40.007538,220
六道口,116.359309,40.006718,521
清华东路西口,116.345527,40.0063,757
北安河,116.136825,40.073863,11
温阳路,116.167825,40.074892,2
稻香湖路,116.194753,40.074788,0
屯佃,116.222442,40.074106,16
永丰,116.245001,40.077705,23
永丰南,116.254611,40.071669,20
西北旺,116.264078,40.055297,21
马连洼,116.279261,40.038769,64
农大南路,116.30599,40.030965,142
高碑店,115.880566,39.332334,0
传媒大学,116.563634,39.917551,602
双桥,116.583337,39.915886,484
管庄,116.602046,39.922428,464
八里桥,116.625156,39.912221,293
通州北苑,116.646918,39.907054,703
果园,116.653045,39.899659,383
九棵树,116.66393,39.89646,97
梨园,116.670763,39.884096,101
临河里,116.685467,39.881239,154
土桥,116.692727,39.877731,146
昌平西山口,116.202226,40.250294,13
十三陵景区,116.231846,40.263544,34
昌平,116.237616,40.226413,143
昌平东关,116.268533,40.227946,33
北邵洼,116.287975,40.228114,17
南邵,116.293505,40.21343,22
沙河高教园,116.286757,40.171012,34
沙河,116.295058,40.154693,35
巩华城,116.300434,40.137318,22
生命科学园,116.30055,40.100975,70
阎村东,116.107001,39.73467700000001,6
苏庄,116.131898,39.729197,23
良乡南关,116.147255,39.72947,46
良乡大学城西,116.162684,39.7296,261
良乡大学城,116.17748,39.731492,265
良乡大学城北,116.189861,39.736109,172
广阳城,116.191395,39.754016,103
篱笆房,116.195928,39.766697,219
长阳,116.21926299999998,39.769411,211
稻田,116.225429,39.80050900000001,2
大葆台,116.298159,39.814112,160
T3航站楼,116.619758,40.072776,19
T2航站楼,116.599563,40.085493,8
颐和园西门,116.270777,39.993386,8
茶棚,116.25461,39.988011,16
万安,116.238603,39.989737,15
植物园,116.216186,40.007561,8
香山,116.195044,39.996194,15
紫草坞,116.093276,39.730266,2
阎村,116.098956,39.721888,6
星城,116.067772,39.719734,15
大石河东,116.046084,39.716115,0
马各庄,116.611893,39.960074,4
饶乐府,116.012607,39.707343,2
房山城关,115.996258,39.711685,3
燕山,115.979985,39.72533,4
肖村,116.447088,39.841166,182
小红门,116.465808,39.83399,62
旧宫,116.467432,39.812543,52
亦庄桥,116.486851,39.808826,128
亦庄文化园,116.49701,39.812839,125
万源街,116.511997,39.80917,157
荣京东街,116.519823,39.799521,83
荣昌东街,116.528038,39.789194,84
同济南路,116.546383,39.779147,16
经海路,116.568912,39.789493,23
次渠南,116.587934,39.800804,62
次渠,116.597911,39.809191,73
亦庄火车站,116.608168,39.818345,42
